{"total_count":132,"results":[{"column_1":"TJV","airport_name":"Thanjavur","city_name":"Thanjavur","country_name":"India","country_code":"IN","latitude":10.7225,"longitude":79.101667,"world_area_code":733,"city_name_geo_name_id":"1254649","country_name_geo_name_id":1269750,"coordinates":{"lon":79.101667,"lat":10.7225}},{"column_1":"PUT","airport_name":"Puttaprathe","city_name":"Puttaparthi","country_name":"India","country_code":"IN","latitude":10.816667,"longitude":76.2,"world_area_code":733,"city_name_geo_name_id":"\\N","country_name_geo_name_id":1269750,"coordinates":{"lon":76.2,"lat":10.816667}},{"column_1":"JSA","airport_name":"Jaisalmer","city_name":"Jaisalmer","country_name":"India","country_code":"IN","latitude":26.866667,"longitude":70.916667,"world_area_code":733,"city_name_geo_name_id":"1269507","country_name_geo_name_id":1269750,"coordinates":{"lon":70.916667,"lat":26.866667}},{"column_1":"WGC","airport_name":"Warangal","city_name":"Warangal","country_name":"India","country_code":"IN","latitude":17.914444,"longitude":79.602222,"world_area_code":733,"city_name_geo_name_id":"1252948","country_name_geo_name_id":1269750,"coordinates":{"lon":79.602222,"lat":17.914444}},{"column_1":"NDC","airport_name":"Nanded","city_name":"Nanded","country_name":"India","country_code":"IN","latitude":19.183333,"longitude":77.316667,"world_area_code":733,"city_name_geo_name_id":"\\N","country_name_geo_name_id":1269750,"coordinates":{"lon":77.316667,"lat":19.183333}},{"column_1":"RTC","airport_name":"Ratnagiri","city_name":"Ratnagiri","country_name":"India","country_code":"IN","latitude":17,"longitude":73.316667,"world_area_code":733,"city_name_geo_name_id":"1258338","country_name_geo_name_id":1269750,"coordinates":{"lon":73.316667,"lat":17}},{"column_1":"PYB","airport_name":"Jeypore","city_name":"Jeypore","country_name":"India","country_code":"IN","latitude":18.85,"longitude":82.583333,"world_area_code":733,"city_name_geo_name_id":"1269515","country_name_geo_name_id":1269750,"coordinates":{"lon":82.583333,"lat":18.85}},{"column_1":"MOH","airport_name":"Mohanbari","city_name":"Mohanbari","country_name":"India","country_code":"IN","latitude":27.483333,"longitude":95.016667,"world_area_code":733,"city_name_geo_name_id":"\\N","country_name_geo_name_id":1269750,"coordinates":{"lon":95.016667,"lat":27.483333}},{"column_1":"IXP","airport_name":"Pathankot","city_name":"Pathankot","country_name":"India","country_code":"IN","latitude":32.233333,"longitude":75.633333,"world_area_code":733,"city_name_geo_name_id":"1260137","country_name_geo_name_id":1269750,"coordinates":{"lon":75.633333,"lat":32.233333}},{"column_1":"IXM","airport_name":"Madurai","city_name":"Madurai","country_name":"India","country_code":"IN","latitude":9.834444,"longitude":78.093333,"world_area_code":733,"city_name_geo_name_id":"1264521","country_name_geo_name_id":1269750,"coordinates":{"lon":78.093333,"lat":9.834444}},{"column_1":"RMD","airport_name":"Ramagundam","city_name":"Ramagundam","country_name":"India","country_code":"IN","latitude":18.766666999999998,"longitude":79.4,"world_area_code":733,"city_name_geo_name_id":"\\N","country_name_geo_name_id":1269750,"coordinates":{"lon":79.4,"lat":18.766666999999998}},{"column_1":"HBX","airport_name":"Hubli","city_name":"Hubli","country_name":"India","country_code":"IN","latitude":15.361667,"longitude":75.084722,"world_area_code":733,"city_name_geo_name_id":"1269920","country_name_geo_name_id":1269750,"coordinates":{"lon":75.084722,"lat":15.361667}},{"column_1":"IXZ","airport_name":"Port Blair","city_name":"Port Blair","country_name":"India","country_code":"IN","latitude":11.666667,"longitude":92.733333,"world_area_code":733,"city_name_geo_name_id":"1259385","country_name_geo_name_id":1269750,"coordinates":{"lon":92.733333,"lat":11.666667}},{"column_1":"DIB","airport_name":"Dibrugarh","city_name":"Dibrugarh","country_name":"India","country_code":"IN","latitude":27.483333,"longitude":94.9,"world_area_code":733,"city_name_geo_name_id":"1272648","country_name_geo_name_id":1269750,"coordinates":{"lon":94.9,"lat":27.483333}},{"column_1":"BDQ","airport_name":"Vadodara","city_name":"Vadodara","country_name":"India","country_code":"IN","latitude":22.316667,"longitude":73.266667,"world_area_code":265,"city_name_geo_name_id":"1253573","country_name_geo_name_id":1269750,"coordinates":{"lon":73.266667,"lat":22.316667}},{"column_1":"DAE","airport_name":"Daparizo","city_name":"Daparizo","country_name":"India","country_code":"IN","latitude":27.5,"longitude":94.333333,"world_area_code":733,"city_name_geo_name_id":"\\N","country_name_geo_name_id":1269750,"coordinates":{"lon":94.333333,"lat":27.5}},{"column_1":"KTU","airport_name":"Kota","city_name":"Kota","country_name":"India","country_code":"IN","latitude":25,"longitude":76.5,"world_area_code":733,"city_name_geo_name_id":"1266051","country_name_geo_name_id":1269750,"coordinates":{"lon":76.5,"lat":25}},{"column_1":"RJI","airport_name":"Rajouri","city_name":"Rajouri","country_name":"India","country_code":"IN","latitude":33.368611,"longitude":74.3025,"world_area_code":733,"city_name_geo_name_id":"\\N","country_name_geo_name_id":1269750,"coordinates":{"lon":74.3025,"lat":33.368611}},{"column_1":"LUH","airport_name":"Amritsar","city_name":"Ludhiana","country_name":"India","country_code":"IN","latitude":30.9,"longitude":75.85,"world_area_code":733,"city_name_geo_name_id":"1264728","country_name_geo_name_id":1269750,"coordinates":{"lon":75.85,"lat":30.9}},{"column_1":"DEL","airport_name":"Indira Gandhi Intl","city_name":"New Delhi","country_name":"India","country_code":"IN","latitude":28.569444,"longitude":77.118056,"world_area_code":733,"city_name_geo_name_id":"1261481","country_name_geo_name_id":1269750,"coordinates":{"lon":77.118056,"lat":28.569444}}]}